[
  {
            "name": "القاهرة الرئيسى",
            "address": "ميدان العتبة/1ش عبد الخالق ثروت",
            "gov": "القاهرة",
            "postal_code": "11511",
            "lat": "30.049770",
            "long": "31.24909"
        },
        {
            "name": "مجمع التحرير",
            "address": "مبنى مجمع التحرير / ميدان التحرير",
            "gov": "القاهرة",
            "postal_code": "11512",
            "lat": "30.042810",
            "long": "31.23491"
        },
        {
            "name": "باب اللـــوق",
            "address": "21ش الأزهار /باب اللوق / ميدان الفلكى",
            "gov": "القاهرة",
            "postal_code": "11513",
            "lat": "30.045340",
            "long": "31.23972"
        },
        {
            "name": "الــــــوزارات",
            "address": "مبنى وزارة الإشغال /بالتحرير",
            "gov": "القاهرة",
            "postal_code": "11514",
            "lat": "30.042021",
            "long": "31.237066"
        },
        {
            "name": "التليفزيون",
            "address": "مبنى التليفزيون / كورنيش النيل",
            "gov": "القاهرة",
            "postal_code": "11515",
            "lat": "30.053590",
            "long": "31.23098"
        },
        {
            "name": "مجلس الشعب",
            "address": "ش مجلس الشعب",
            "gov": "القاهرة",
            "postal_code": "11516",
            "lat": "30.039260",
            "long": "31.23884"
        },
        {
            "name": "العباسية",
            "address": "5 ش سليم عبده ميدان عبده باشا العباسية",
            "gov": "القاهرة",
            "postal_code": "11517",
            "lat": "30.064200",
            "long": "31.27601"
        },
        {
            "name": "محمد فريد",
            "address": "1 شارع محمد فريد /القاهرة",
            "gov": "القاهرة",
            "postal_code": "11518",
            "lat": "30.037160",
            "long": "31.24352"
        },
        {
            "name": "جاردن سيتي",
            "address": "مبنى مجمع التحرير",
            "gov": "القاهرة",
            "postal_code": "11519",
            "lat": "30.042810",
            "long": "31.23491"
        },
        {
            "name": "الدواويــــــن",
            "address": "ش نوبار /ميدان لاظوغلي",
            "gov": "القاهرة",
            "postal_code": "11521",
            "lat": "30.039150",
            "long": "31.24028"
        },
        {
            "name": "رمسيس",
            "address": "57 شارع رمسيس/ الأزبكية",
            "gov": "القاهرة",
            "postal_code": "11522",
            "lat": "30.053780",
            "long": "31.23913"
        },
        {
            "name": "الفجالة",
            "address": "11 ش سراج الدين بالفجالة / الازبكية",
            "gov": "القاهرة",
            "postal_code": "11523",
            "lat": "30.060960",
            "long": "31.24797"
        },
        {
            "name": "وزارة التربية والتعليم",
            "address": "مبنى وزارة التربية و التعليم",
            "gov": "القاهرة",
            "postal_code": "11524",
            "lat": "30.036853",
            "long": "31.237261"
        },
        {
            "name": "القصر الجمهورى بالقبة",
            "address": "داخل القصر الجمهورى / حدائق القبة",
            "gov": "القاهرة",
            "postal_code": "11527",
            "lat": "30.085790",
            "long": "31.27837"
        },
        {
            "name": "الحى العاشر",
            "address": "الحى العاشر 14ش مهدى عرفه- برج الروضه",
            "gov": "القاهرة",
            "postal_code": "11528",
            "lat": "30.045210",
            "long": "31.37864"
        },
        {
            "name": "مرور القاهرة",
            "address": "مبنى إدارة مرور القاهرة / العتبة",
            "gov": "القاهرة",
            "postal_code": "11529",
            "lat": "30.050940",
            "long": "31.27327"
        },
        {
            "name": "وزارة الخارجية",
            "address": "مبنى وزارة الخارجية / ماسبيرو/ بولاق",
            "gov": "القاهرة",
            "postal_code": "11531",
            "lat": "30.055470",
            "long": "31.22987"
        },
        {
            "name": "وزارة السياحة",
            "address": "5 شارع عدلى/ وزارة السياحة/ الازبكية",
            "gov": "القاهرة",
            "postal_code": "11534",
            "lat": "30.050930",
            "long": "31.2456"
        },
        {
            "name": "العباسية _ ثان",
            "address": "2 ش السرايات ميدان عبده باشا",
            "gov": "القاهرة",
            "postal_code": "11535",
            "lat": "30.065730",
            "long": "31.27748"
        },
        {
            "name": "نادى القاهرة الرياضى",
            "address": "ميدان احمد ماهر الجزيرةـ القاهرة",
            "gov": "القاهرة",
            "postal_code": "11536",
            "lat": "30.060940",
            "long": "31.21971"
        },
        {
            "name": "محكمة شمال القاهرة الابتدائية العباسية",
            "address": "ميدان العباسية مبنى محكمة شمال القاهرة الابتدائية",
            "gov": "القاهرة",
            "postal_code": "11538",
            "lat": "30.072280",
            "long": "31.28778"
        },
        {
            "name": "العباسية ثالث",
            "address": "137ش رمسيس / العباسية بمقر جمعية الوحدة الاسلامية",
            "gov": "القاهرة",
            "postal_code": "11539",
            "lat": "30.062146",
            "long": "31.248875"
        },
        {
            "name": "طرود القاهرة الرئيسى",
            "address": "مبنى العتبه / مبنى البريد",
            "gov": "القاهرة",
            "postal_code": "11541",
            "lat": "30.049769",
            "long": "31.24909"
        },
        {
            "name": "ارض السبيل",
            "address": "ش ورش التليفونات / ارض السبيل شبرا",
            "gov": "القاهرة",
            "postal_code": "11549",
            "lat": "30.072540",
            "long": "31.24976"
        },
        {
            "name": "مدينة البعوث الاسلامية",
            "address": "مدينة البعوث الإسلامية / بالدراسة",
            "gov": "القاهرة",
            "postal_code": "11551",
            "lat": "30.056420",
            "long": "31.27658"
        },
        {
            "name": "نقابة الصحفيين",
            "address": "شارع عبد الخالق / مبنى نقابة الصحفيين / الازبكية",
            "gov": "القاهرة",
            "postal_code": "11552",
            "lat": "30.052100",
            "long": "31.2385"
        },
        {
            "name": "منيل الروضة",
            "address": "9ش قصر المنيل /مينل الروضة",
            "gov": "القاهرة",
            "postal_code": "11553",
            "lat": "30.024760",
            "long": "31.22361"
        },
        {
            "name": "أبو الســــعود",
            "address": "ميدان النفق الشرقي /مصر القديمة",
            "gov": "القاهرة",
            "postal_code": "11554",
            "lat": "30.015760",
            "long": "31.23137"
        },
        {
            "name": "منيل الروضة غرب",
            "address": "115ش عبد العزيز أل سعود / المنيل",
            "gov": "القاهرة",
            "postal_code": "11555",
            "lat": "30.018110",
            "long": "31.2227"
        },
        {
            "name": "المتحف المصري",
            "address": "مبنى المتحف المصري / ميدان التحرير",
            "gov": "القاهرة",
            "postal_code": "11556",
            "lat": "30.047020",
            "long": "31.23365"
        },
        {
            "name": "باب الشعرية",
            "address": "178 ش الجيش / باب الشعرية",
            "gov": "القاهرة",
            "postal_code": "11558",
            "lat": "30.059160",
            "long": "31.2618"
        },
        {
            "name": "الملك الصالح",
            "address": "8ش سيالة الروضة /بالمنيل",
            "gov": "القاهرة",
            "postal_code": "11559",
            "lat": "30.015930",
            "long": "31.22477"
        },
        {
            "name": "الزمالك",
            "address": "3 ش البرازيل / بالزمالك",
            "gov": "القاهرة",
            "postal_code": "11561",
            "lat": "30.060380",
            "long": "31.22235"
        },
        {
            "name": "القصر العيني",
            "address": "71ش القصر العيني",
            "gov": "القاهرة",
            "postal_code": "11562",
            "lat": "30.032070",
            "long": "31.23301"
        },
        {
            "name": "الظاهر",
            "address": "70 شارع الظاهر",
            "gov": "القاهرة",
            "postal_code": "11563",
            "lat": "30.065420",
            "long": "31.26693"
        },
        {
            "name": "مجمع المحاكم الازبكية",
            "address": "مبنى مجمع المحاكم شارع الجلاء/ الازبكية",
            "gov": "القاهرة",
            "postal_code": "11564",
            "lat": "30.063580",
            "long": "31.25027"
        },
        {
            "name": "جامعة عين شمس",
            "address": "داخل مبنى جامعة عين شمس",
            "gov": "القاهرة",
            "postal_code": "11566",
            "lat": "30.078317",
            "long": "31.285763"
        },
        {
            "name": "برج القاهرة",
            "address": "مبنى البرج / الحزيرة / قصر النيل",
            "gov": "القاهرة",
            "postal_code": "11567",
            "lat": "30.522820",
            "long": "31.18119"
        },
        {
            "name": "الجزيرة _ زمالك",
            "address": "3 ش شجرة الدر بالزمالك",
            "gov": "القاهرة",
            "postal_code": "11568",
            "lat": "30.058720",
            "long": "31.21767"
        },
        {
            "name": "مدينة المقطم",
            "address": "ميدان النافورة /مدينة المقطم",
            "gov": "القاهرة",
            "postal_code": "11571",
            "lat": "30.015530",
            "long": "31.28051"
        },
        {
            "name": "توفير الألفى",
            "address": "1 شارع الألفى / وسط القاهرة",
            "gov": "القاهرة",
            "postal_code": "11574",
            "lat": "30.030740",
            "long": "31.25177"
        },
        {
            "name": "التونسي",
            "address": "26 ش سنادة بخارطة التونسي",
            "gov": "القاهرة",
            "postal_code": "11575",
            "lat": "30.01647",
            "long": "31.256833"
        },
        {
            "name": "الضرائب على المبيعات",
            "address": "عمارات اغا خان / شبرا",
            "gov": "القاهرة",
            "postal_code": "11576",
            "lat": "30.101090",
            "long": "31.24108"
        },
        {
            "name": "القبيسى",
            "address": "39 ش اسماعيل الفلكى / الظاهر",
            "gov": "القاهرة",
            "postal_code": "11577",
            "lat": "30.064650",
            "long": "31.26161"
        },
        {
            "name": "الإمام الشافعي",
            "address": "176ش الأمام الشافعي / الخليفه",
            "gov": "القاهرة",
            "postal_code": "11581",
            "lat": "30.02697",
            "long": "31.251887"
        },
        {
            "name": "رئاسة مجلس الوزراء",
            "address": "ش القصر العينى مبنى رئاسة مجلس الوزراء",
            "gov": "القاهرة",
            "postal_code": "11582",
            "lat": "30.039600",
            "long": "31.23613"
        },
        {
            "name": "وزارة التعاون الدولى",
            "address": "8 شارع عدلى /القاهرة /مبنى وزارة",
            "gov": "القاهرة",
            "postal_code": "11584",
            "lat": "30.050930",
            "long": "31.2456"
        },
        {
            "name": "الهضبة الوسطي",
            "address": "مساكن أطلس بلوك 9 م/1شقة1 المقطم",
            "gov": "القاهرة",
            "postal_code": "11585",
            "lat": "30.014280",
            "long": "31.33511"
        },
        {
            "name": "هيئة الرقابة إدارية",
            "address": "مبنى الرقابة الادارية ارض الجولف مدينة نصر",
            "gov": "القاهرة",
            "postal_code": "11586",
            "lat": "30.078520",
            "long": "31.33947"
        },
        {
            "name": "مستشفى عين شمس التخصصى",
            "address": "مبنى المستشفى / ش الخليفة المأمون",
            "gov": "القاهرة",
            "postal_code": "11588",
            "lat": "30.086310",
            "long": "31.29973"
        },
        {
            "name": "كلية طب عين شمس",
            "address": "كلية طب عين شمس/العباسية",
            "gov": "القاهرة",
            "postal_code": "11591",
            "lat": "30.075980",
            "long": "31.28112"
        },
        {
            "name": "ميناء القاهرة الجوى ثان مغلق بصفة مؤقتة",
            "address": "داخل مبنى المطار الجديد بالقاهرة/ النزهة",
            "gov": "القاهرة",
            "postal_code": "11592",
            "lat": "30.044420",
            "long": "31.23571"
        },
        {
            "name": "نادى الجزيرة الرياضى",
            "address": "نادى الجزيرة الرياضى/ ش الجبلاية / الزمالك",
            "gov": "القاهرة",
            "postal_code": "11593",
            "lat": "30.053180",
            "long": "31.22358"
        },
        {
            "name": "إسكان النصر للسيارات",
            "address": "مساكن النصر للسيارات بوادى حوف",
            "gov": "القاهرة",
            "postal_code": "11594",
            "lat": "29.891677",
            "long": "31.305939"
        },
        {
            "name": "قباء",
            "address": "59ش مسجد قباء/ مدينة قباء",
            "gov": "القاهرة",
            "postal_code": "11595",
            "lat": "30.439250",
            "long": "31.61729"
        },
        {
            "name": "خدمة هواة الطوابع",
            "address": "مبنى الهيئة القومية للبريد بالعتبة / مبنى ديوان عام",
            "gov": "القاهرة",
            "postal_code": "11599",
            "lat": "30.063762",
            "long": "31.249143"
        },
        {
            "name": "بولاق",
            "address": "74 ش 26 يوليو القاهرة/بولاق - تم غلق هذا المكتب حاليا وتم إسناد أعماله إلى مكتب بريد الأزبكية الكائن بمكتب الحركة برمسيس",
            "gov": "القاهرة",
            "postal_code": "11611",
            "lat": "30.062340",
            "long": "31.21477"
        },
        {
            "name": "عابديــــن",
            "address": "ش الشيخ ريحان /عابدين",
            "gov": "القاهرة",
            "postal_code": "11613",
            "lat": "30.041110",
            "long": "31.24204"
        },
        {
            "name": "الخلفاوى",
            "address": "268 ش شبرا/ قسم الساحل",
            "gov": "القاهرة",
            "postal_code": "11614",
            "lat": "30.100520",
            "long": "31.24514"
        },
        {
            "name": "السيدة زينب",
            "address": "194 ش بورسعيد بالسيدة زينب",
            "gov": "القاهرة",
            "postal_code": "11617",
            "lat": "30.034600",
            "long": "31.2466"
        },
        {
            "name": "السيدة عائشة",
            "address": "2زقاق أبى البقاء /السيدة عائشة",
            "gov": "القاهرة",
            "postal_code": "11618",
            "lat": "30.026219",
            "long": "31.256278"
        },
        {
            "name": "جزيرة بدران",
            "address": "48 ش جزيرة بدران / شبرا/روض الفرج",
            "gov": "القاهرة",
            "postal_code": "11619",
            "lat": "30.066840",
            "long": "31.23986"
        },
        {
            "name": "الخرنفش",
            "address": "4 ش الخرنفش بالجمالية",
            "gov": "القاهرة",
            "postal_code": "11621",
            "lat": "30.051280",
            "long": "31.26036"
        },
        {
            "name": "درب الجماميز",
            "address": "317 ش بورسعيد /السيدة زينب",
            "gov": "القاهرة",
            "postal_code": "11622",
            "lat": "30.036280",
            "long": "31.24841"
        },
        {
            "name": "السبتية",
            "address": "6ش مدرسة عباس/السبتية/بولاق",
            "gov": "القاهرة",
            "postal_code": "11624",
            "lat": "30.065380",
            "long": "31.23677"
        },
        {
            "name": "الأفضل",
            "address": "3 ميدان الأفضل / ش الترعة البولاقية",
            "gov": "القاهرة",
            "postal_code": "11627",
            "lat": "30.076480",
            "long": "31.25184"
        },
        {
            "name": "زين العابدين",
            "address": "ش على باشا إبراهيم /ميدان أبو الريش",
            "gov": "القاهرة",
            "postal_code": "11628",
            "lat": "30.036511",
            "long": "31.253999"
        },
        {
            "name": "حدائق شبرا",
            "address": "85 ش اليازجى / شبرا",
            "gov": "القاهرة",
            "postal_code": "11629",
            "lat": "30.081360",
            "long": "31.24517"
        },
        {
            "name": "روض الفرج",
            "address": "137 شارع عبيد / روض الفرج",
            "gov": "القاهرة",
            "postal_code": "11631",
            "lat": "30.088540",
            "long": "31.23649"
        },
        {
            "name": "مصـــــر القديمة",
            "address": "ش القسم بجوار قسم مصر القديمة",
            "gov": "القاهرة",
            "postal_code": "11632",
            "lat": "30.007780",
            "long": "31.23402"
        },
        {
            "name": "الدراسة",
            "address": "9ش المنصورية بالدراسة/الجمالية",
            "gov": "القاهرة",
            "postal_code": "11633",
            "lat": "30.047720",
            "long": "31.26788"
        },
        {
            "name": "البساتين",
            "address": "60 ش البساتين العمومي",
            "gov": "القاهرة",
            "postal_code": "11634",
            "lat": "29.984760",
            "long": "31.26822"
        },
        {
            "name": "القلعـــــــة",
            "address": "ميدان صلاح الدين /بالقلعة",
            "gov": "القاهرة",
            "postal_code": "11636",
            "lat": "30.031530",
            "long": "31.2573"
        },
        {
            "name": "شبرا فرعى",
            "address": "3ش محمد الهوارى/ شبرا",
            "gov": "القاهرة",
            "postal_code": "11637",
            "lat": "30.095030",
            "long": "31.24661"
        },
        {
            "name": "باب الخلق",
            "address": "4ش حسن الأكبر /باب الخلق",
            "gov": "القاهرة",
            "postal_code": "11638",
            "lat": "30.006300",
            "long": "31.30002"
        },
        {
            "name": "الغورية",
            "address": "4 ش السلطان الصاحب بالغورية /الدرب الأحمر",
            "gov": "القاهرة",
            "postal_code": "11639",
            "lat": "30.046930",
            "long": "31.25826"
        },
        {
            "name": "مبنى التوفير بالازبكية",
            "address": "مبنى التوفير بالازبكية",
            "gov": "القاهرة",
            "postal_code": "11642",
            "lat": "30.063190",
            "long": "31.24887"
        },
        {
            "name": "العطار",
            "address": "15 شارع العطار/من ش الترعة بشبرا",
            "gov": "القاهرة",
            "postal_code": "11643",
            "lat": "30.069940",
            "long": "31.24976"
        },
        {
            "name": "قصور الشوام",
            "address": "9 شارع البعثة متفرع من شارع شبرا",
            "gov": "القاهرة",
            "postal_code": "11644",
            "lat": "30.068170",
            "long": "31.24424"
        },
        {
            "name": "حدائق القبة",
            "address": "133 ش مصر والسودان",
            "gov": "القاهرة",
            "postal_code": "11646",
            "lat": "30.085290",
            "long": "31.28297"
        },
        {
            "name": "مصلحة الضرائب",
            "address": "ش حسين حجازي /السيدة زينب",
            "gov": "القاهرة",
            "postal_code": "11647",
            "lat": "30.038870",
            "long": "31.23702"
        },
        {
            "name": "حدائق شبرا فرعى",
            "address": "ش المللك الصالح / شبرا مصر 9",
            "gov": "القاهرة",
            "postal_code": "11648",
            "lat": "30.086380",
            "long": "31.24679"
        },
        {
            "name": "جامعة الأزهر",
            "address": "داخل جامعة الأزهر/الدراسة/الجمالية",
            "gov": "القاهرة",
            "postal_code": "11651",
            "lat": "30.059330",
            "long": "31.31302"
        },
        {
            "name": "أحمد بدوى",
            "address": "ش احمد بدوى / شبرا",
            "gov": "القاهرة",
            "postal_code": "11652",
            "lat": "30.068010",
            "long": "31.24839"
        },
        {
            "name": "مهمشة",
            "address": "3 ش عبد المنعم حمزه / الشرابية",
            "gov": "القاهرة",
            "postal_code": "11653",
            "lat": "30.081600",
            "long": "31.25978"
        },
        {
            "name": "عين الصيرة",
            "address": "المساكن الشعبية بعين الصيرة",
            "gov": "القاهرة",
            "postal_code": "11654",
            "lat": "30.017778",
            "long": "31.244321"
        },
        {
            "name": "الحلمية الجديدة",
            "address": "25ش مراد /الحليمة الجديدة",
            "gov": "القاهرة",
            "postal_code": "11655",
            "lat": "30.034690",
            "long": "31.2544"
        },
        {
            "name": "المساكن الشعبية بالترعة",
            "address": "المساكن الشعبية بالترعة بلوك 96 /شبرا",
            "gov": "القاهرة",
            "postal_code": "11656",
            "lat": "30.072540",
            "long": "31.24976"
        },
        {
            "name": "دير الملاك",
            "address": "41 ش مصر والسودان/ دير الملاك حدائق القبة",
            "gov": "القاهرة",
            "postal_code": "11657",
            "lat": "30.076390",
            "long": "31.2737"
        },
        {
            "name": "الوايلى الكبير",
            "address": "38ش الخليج المصرى/الوايلى الكبير حدائق القبة",
            "gov": "القاهرة",
            "postal_code": "11658",
            "lat": "30.100650",
            "long": "31.2801"
        },
        {
            "name": "الزاوية الحمراء",
            "address": "مساكن الزاوية الحمراء القديمة",
            "gov": "القاهرة",
            "postal_code": "11659",
            "lat": "30.090870",
            "long": "31.26851"
        },
        {
            "name": "إبن الرشيد",
            "address": "57 ش أبن الرشيد / روض الفرج",
            "gov": "القاهرة",
            "postal_code": "11661",
            "lat": "30.071320",
            "long": "31.23728"
        },
        {
            "name": "منشية الصدر",
            "address": "198 ش ترعة الجبل / حدائق القبة",
            "gov": "القاهرة",
            "postal_code": "11663",
            "lat": "30.085420",
            "long": "31.28895"
        },
        {
            "name": "عزبة الخمايسة",
            "address": "مبنى مسجد الهدى الإسلام/ش المجارى بعزبة الخماسية",
            "gov": "القاهرة",
            "postal_code": "11664",
            "lat": "30.08604",
            "long": "31.257028"
        },
        {
            "name": "عزبة بلال",
            "address": "5 عطفه مصطفى عزبة بلال الشرابية",
            "gov": "القاهرة",
            "postal_code": "11665",
            "lat": "30.038210",
            "long": "31.2585"
        },
        {
            "name": "ساحل الغلال",
            "address": "ش اثر النبي /مصر القديمة",
            "gov": "القاهرة",
            "postal_code": "11666",
            "lat": "29.988650",
            "long": "31.23259"
        },
        {
            "name": "سوق الخضار",
            "address": "133ش ترعة جزيرة بدران/روض الفرج",
            "gov": "القاهرة",
            "postal_code": "11667",
            "lat": "30.075010",
            "long": "31.23048"
        },
        {
            "name": "باب البحر",
            "address": "31 ش باب البحر / باب الشعرية",
            "gov": "القاهرة",
            "postal_code": "11668",
            "lat": "30.059110",
            "long": "31.24836"
        },
        {
            "name": "الأزبكية",
            "address": "مبنى مركز الحركة برمسيس",
            "gov": "القاهرة",
            "postal_code": "11669",
            "lat": "30.063560",
            "long": "31.24901"
        },
        {
            "name": "مساكن إيديال",
            "address": "مساكن إيديال بلوك 90 / ارض الشركة",
            "gov": "القاهرة",
            "postal_code": "11671",
            "lat": "30.046000",
            "long": "31.25823"
        },
        {
            "name": "شبرا مصر",
            "address": "81 شارع شبرا",
            "gov": "القاهرة",
            "postal_code": "11672",
            "lat": "30.071630",
            "long": "31.24527"
        },
        {
            "name": "مساكن البريد بغمرة",
            "address": "مساكن البريد بغمرة بلوك 7 مدخل 1",
            "gov": "القاهرة",
            "postal_code": "11673",
            "lat": "30.068480",
            "long": "31.26764"
        },
        {
            "name": "غمرة",
            "address": "4 ش ميدان الظاهر",
            "gov": "القاهرة",
            "postal_code": "11674",
            "lat": "30.062590",
            "long": "31.26241"
        },
        {
            "name": "الازهر",
            "address": "123 ش الأزهر/ قسم الجمالية",
            "gov": "القاهرة",
            "postal_code": "11675",
            "lat": "30.045690",
            "long": "31.26269"
        },
        {
            "name": "اسكان أطلس",
            "address": "مساكن اطلس/الزاوية بلوك 7",
            "gov": "القاهرة",
            "postal_code": "11676",
            "lat": "30.098411",
            "long": "31.266301"
        },
        {
            "name": "إسكان مظلوم",
            "address": "مساكن مظلوم الجديدة بلوك 2 / الشرابية",
            "gov": "القاهرة",
            "postal_code": "11677",
            "lat": "30.077430",
            "long": "31.25997"
        },
        {
            "name": "محطة القاهرة",
            "address": "مبنى محطة مصر/ ميدان رمسيس / سكك حديد",
            "gov": "القاهرة",
            "postal_code": "11678",
            "lat": "30.063230",
            "long": "31.24694"
        },
        {
            "name": "مجد الإسلام",
            "address": "ميدان عبود / بجوار مسجد مجد الاسلام 17",
            "gov": "القاهرة",
            "postal_code": "11679",
            "lat": "30.070480",
            "long": "31.25905"
        },
        {
            "name": "المعز لدين الله الفاطمى",
            "address": "شارع المعز لدين الله بالجمالية",
            "gov": "القاهرة",
            "postal_code": "11681",
            "lat": "30.050930",
            "long": "31.26157"
        },
        {
            "name": "القرية الاوليمبية المدينة الطلابية",
            "address": "مبنى المدينة الطلابية بجامعة الازهر /الحى السادس",
            "gov": "القاهرة",
            "postal_code": "11682",
            "lat": "30.050630",
            "long": "31.31496"
        },
        {
            "name": "مدينة النور",
            "address": "بلوك 69 مدخل 1 / مدينة النور / الزاوية",
            "gov": "القاهرة",
            "postal_code": "11683",
            "lat": "30.763030",
            "long": "31.7365"
        },
        {
            "name": "الدويقة",
            "address": "مساكن الدويقة / منشيه ناصر",
            "gov": "القاهرة",
            "postal_code": "11684",
            "lat": "30.036230",
            "long": "31.27825"
        },
        {
            "name": "البساتين غرب",
            "address": "ش أبو النجا/البساتين",
            "gov": "القاهرة",
            "postal_code": "11685",
            "lat": "29.982050",
            "long": "31.2668"
        },
        {
            "name": "صقر قريش",
            "address": "بلوك 15 مدخل 3 بالزاوية الحمراء",
            "gov": "القاهرة",
            "postal_code": "11686",
            "lat": "30.095680",
            "long": "31.2655"
        },
        {
            "name": "منطقة توفير شبرا",
            "address": "10 ش مسره / روض الفرج",
            "gov": "القاهرة",
            "postal_code": "11687",
            "lat": "30.070900",
            "long": "31.2451"
        },
        {
            "name": "مستعمرة كهرباء شمال القاهرة",
            "address": "داخل مستعمرة شمال القاهرة / الزاوية",
            "gov": "القاهرة",
            "postal_code": "11688",
            "lat": "30.108700",
            "long": "31.27526"
        },
        {
            "name": "دوران شبرا",
            "address": "16 ش محمد الفرماوى/ شبرا/الساحل",
            "gov": "القاهرة",
            "postal_code": "11689",
            "lat": "30.080090",
            "long": "31.24287"
        },
        {
            "name": "مساكن الاباجية",
            "address": "مساكن الاباجية / القلعة",
            "gov": "القاهرة",
            "postal_code": "11691",
            "lat": "30.045820",
            "long": "31.28165"
        },
        {
            "name": "خالد بن الوليد",
            "address": "ميدان الجرن بالشرابيه",
            "gov": "القاهرة",
            "postal_code": "11692",
            "lat": "30.079970",
            "long": "31.26788"
        },
        {
            "name": "السوق التجاري _ المعادى",
            "address": "مجمع الأهرام ش النصر /بالمعادى الجديدة",
            "gov": "القاهرة",
            "postal_code": "11693",
            "lat": "29.960160",
            "long": "31.25691"
        },
        {
            "name": "أكاديمية البحث العلمي",
            "address": "ش القصر العيني بجوار مسرح السلام",
            "gov": "القاهرة",
            "postal_code": "11694",
            "lat": "30.037530",
            "long": "31.23458"
        },
        {
            "name": "قايتباى",
            "address": "شارع مقابر الشهداء بقايتباى- منشيه ناصر",
            "gov": "القاهرة",
            "postal_code": "11695",
            "lat": "30.036230",
            "long": "31.27825"
        },
        {
            "name": "خدمة البيئة",
            "address": "ش الفرن جمعية الرعاية المتكاملة / منشيه ناصر",
            "gov": "القاهرة",
            "postal_code": "11696",
            "lat": "30.088120",
            "long": "31.27695"
        },
        {
            "name": "مستشفى الساحل",
            "address": "مبنى مستشفى الساحل / الساحل",
            "gov": "القاهرة",
            "postal_code": "11697",
            "lat": "30.083930",
            "long": "31.24225"
        },
        {
            "name": "مستشفى الجلاء",
            "address": "51ش 26يوليو داخل مستشفى الجلاء / الازبكية",
            "gov": "القاهرة",
            "postal_code": "11698",
            "lat": "30.054610",
            "long": "31.23668"
        },
        {
            "name": "منشأة ناصر",
            "address": "منشأة ناصر بلوك 3 / المساكن الشعبية",
            "gov": "القاهرة",
            "postal_code": "11699",
            "lat": "30.044380",
            "long": "31.28266"
        },
        {
            "name": "مستشفى القوات المسلحة بالمعادى",
            "address": "ش كورنيش النيل مبنى مستشفى القوات المسلحة /بالمعادى",
            "gov": "القاهرة",
            "postal_code": "11711",
            "lat": "29.967080",
            "long": "31.2422"
        },
        {
            "name": "سراى القبة",
            "address": "89ش محطة سراى القبة/مصر الجديدة",
            "gov": "القاهرة",
            "postal_code": "11712",
            "lat": "30.085960",
            "long": "31.28266"
        },
        {
            "name": "المعصــــــرة محطة",
            "address": "ناصية ش عبد الجواد بالمعصرة",
            "gov": "القاهرة",
            "postal_code": "11713",
            "lat": "29.906340",
            "long": "31.2984"
        },
        {
            "name": "شجرة مريم",
            "address": "37 ش البلسم من ش المطراوى / المطرية",
            "gov": "القاهرة",
            "postal_code": "11714",
            "lat": "30.123570",
            "long": "31.30189"
        },
        {
            "name": "المساكن الشعبية بالأميرية",
            "address": "مساكن الاميريه بلوك 34 مدخل 1",
            "gov": "القاهرة",
            "postal_code": "11715",
            "lat": "30.084060",
            "long": "31.24861"
        },
        {
            "name": "دار السلام الفيوم",
            "address": "ش الفيوم /خلف المدرسة المعمارية بدار السلام",
            "gov": "القاهرة",
            "postal_code": "11716",
            "lat": "29.308400",
            "long": "30.84285"
        },
        {
            "name": "مساكن ضباط الصف",
            "address": "الحى السادس امام مسجد الرحمة مساكن ضباط الصف",
            "gov": "القاهرة",
            "postal_code": "11717",
            "lat": "30.039030",
            "long": "31.32271"
        },
        {
            "name": "المساكن الشعبية بالحلمية",
            "address": "مساكن الحلمية 178 ش متحف المطرية / حلمية الزيتون",
            "gov": "القاهرة",
            "postal_code": "11718",
            "lat": "30.116060",
            "long": "31.33155"
        },
        {
            "name": "سنترال المطرية",
            "address": "ش الكابلات بجوار حى المطرية بلوك 43",
            "gov": "القاهرة",
            "postal_code": "11719",
            "lat": "30.131220",
            "long": "31.31033"
        },
        {
            "name": "المرج اول",
            "address": "ش محمد ابراهيم / بجوار مسجد البقلى / المرج",
            "gov": "القاهرة",
            "postal_code": "11721",
            "lat": "30.145410",
            "long": "31.34026"
        },
        {
            "name": "حلوان حمامات",
            "address": "33 ش محمد سيد أحمد / حلوان",
            "gov": "القاهرة",
            "postal_code": "11722",
            "lat": "29.847360",
            "long": "31.33011"
        },
        {
            "name": "العزبتين",
            "address": "العزبة البحرية ش 18/ حلوان",
            "gov": "القاهرة",
            "postal_code": "11723",
            "lat": "29.836560",
            "long": "31.33706"
        },
        {
            "name": "حلمية الزيتون",
            "address": "17 ش الكمال/ حلمية الزيتون",
            "gov": "القاهرة",
            "postal_code": "11724",
            "lat": "30.113500",
            "long": "31.3145"
        },
        {
            "name": "حدائق الزيتون",
            "address": "امام محطة حدائق الزيتون مترو",
            "gov": "القاهرة",
            "postal_code": "11725",
            "lat": "30.105217",
            "long": "31.309661"
        },
        {
            "name": "المصانع الحربية بحلوان",
            "address": "داخل مصنع 99 الحربى بحلوان",
            "gov": "القاهرة",
            "postal_code": "11726",
            "lat": "29.865040",
            "long": "31.33179"
        },
        {
            "name": "الحى السابع",
            "address": "عمارة 69 مساكن عثمان / مدينة نصر",
            "gov": "القاهرة",
            "postal_code": "11727",
            "lat": "30.052460",
            "long": "31.33139"
        },
        {
            "name": "المعـــــــادى",
            "address": "ش 9 بالمعادى",
            "gov": "القاهرة",
            "postal_code": "11728",
            "lat": "29.966500",
            "long": "31.2548"
        },
        {
            "name": "طـــــــــره",
            "address": "مبنى محطة مترو طره البلد",
            "gov": "القاهرة",
            "postal_code": "11729",
            "lat": "29.946760",
            "long": "31.27298"
        },
        {
            "name": "حدائق حلوان",
            "address": "ش البوسطة / حدائق حلوان",
            "gov": "القاهرة",
            "postal_code": "11731",
            "lat": "29.898450",
            "long": "31.3016"
        },
        {
            "name": "منشية ناصر_حدائق حلوان",
            "address": "غرب حدائق حلوان/ منشية ناصر",
            "gov": "القاهرة",
            "postal_code": "11732",
            "lat": "29.840270",
            "long": "31.29821"
        },
        {
            "name": "زهراء حلوان",
            "address": "زهراء حلوان / بوادى حوف / السوق التجارى",
            "gov": "القاهرة",
            "postal_code": "11733",
            "lat": "29.840270",
            "long": "31.29821"
        },
        {
            "name": "الزيتون الشرقية",
            "address": "رقم 30 ش أول منشية التحرير من شارع جسر السويس",
            "gov": "القاهرة",
            "postal_code": "11734",
            "lat": "30.128540",
            "long": "31.36479"
        },
        {
            "name": "حلوان الغربية",
            "address": "ش لاظوغلى تقاطع شارع رايل",
            "gov": "القاهرة",
            "postal_code": "11735",
            "lat": "30.039130",
            "long": "31.24034"
        },
        {
            "name": "هليوبوليس حرية",
            "address": "تقاطع ش العروبة مع النزهة أمام نادى الجلاء / مصر الجديدة",
            "gov": "القاهرة",
            "postal_code": "11736",
            "lat": "30.095560",
            "long": "31.34594"
        },
        {
            "name": "هليوبوليس بحرى",
            "address": "48 ش دمشق / مصر الجديدة",
            "gov": "القاهرة",
            "postal_code": "11737",
            "lat": "30.095370",
            "long": "31.32424"
        },
        {
            "name": "بركة الحاج",
            "address": "شارع الجمهورية / بركة الحاج / المرج",
            "gov": "القاهرة",
            "postal_code": "11738",
            "lat": "30.150770",
            "long": "31.36673"
        },
        {
            "name": "مساكن مدينة الطيران",
            "address": "مساكن مدينة الطيران/حلوان",
            "gov": "القاهرة",
            "postal_code": "11739",
            "lat": "29.839830",
            "long": "31.3487"
        },
        {
            "name": "الاسكان الصناعى حلوان",
            "address": "مساكن شرق حلوان القاهرة",
            "gov": "القاهرة",
            "postal_code": "11741",
            "lat": "29.841630",
            "long": "31.33623"
        },
        {
            "name": "المعادى الجديدة",
            "address": "عمارة البرج ميدان الجزائر /المعادى الجديدة",
            "gov": "القاهرة",
            "postal_code": "11742",
            "lat": "29.972990",
            "long": "31.27637"
        },
        {
            "name": "المعصرة البلد",
            "address": "طريق مصر حلوان الزراعى المعصرة",
            "gov": "القاهرة",
            "postal_code": "11743",
            "lat": "29.969140",
            "long": "31.2475"
        },
        {
            "name": "خمسة عشر مايو ثان",
            "address": "المجاورة 7 المرحلة الأولى/",
            "gov": "القاهرة",
            "postal_code": "11744",
            "lat": "29.824997",
            "long": "31.357170"
        },
        {
            "name": "جزيرة دار السلام",
            "address": "7 ش جمعة عضيم /دار السلام",
            "gov": "القاهرة",
            "postal_code": "11745",
            "lat": "29.989520",
            "long": "31.25405"
        },
        {
            "name": "الاسكان الاقتصادى",
            "address": "سوق المساكن الاقتصادية بحلوان",
            "gov": "القاهرة",
            "postal_code": "11746",
            "lat": "29.859230",
            "long": "31.32183"
        },
        {
            "name": "خمسةعشرمايو أول_ السادات",
            "address": "المجاورة 6 المرحلة الأولى/ 15مايو",
            "gov": "القاهرة",
            "postal_code": "11747",
            "lat": "29.857940",
            "long": "31.38847"
        },
        {
            "name": "خمسة عشر مايو ثالث",
            "address": "المجاورة 5 المرحلة الأولى /",
            "gov": "القاهرة",
            "postal_code": "11748",
            "lat": "29.832946",
            "long": "31.35921"
        },
        {
            "name": "العزبة القبلية",
            "address": "مدينة الحرفيين بحلوان/حلوان",
            "gov": "القاهرة",
            "postal_code": "11749",
            "lat": "30.152760",
            "long": "31.40376"
        },
        {
            "name": "القرية الأولمبية",
            "address": "المدينة الجامعية بكلية الأزهر/م نصر ثان",
            "gov": "القاهرة",
            "postal_code": "11751",
            "lat": "30.059330",
            "long": "31.31302"
        },
        {
            "name": "المطرية محطة المترو",
            "address": "ش خارجة المطرية امام محطة المترو",
            "gov": "القاهرة",
            "postal_code": "11753",
            "lat": "30.121502",
            "long": "31.313561"
        },
        {
            "name": "كلية البنات الاسلامية",
            "address": "مبنى داخل كلية البنات الإسلامية/مدينة نصر / ش الطيران",
            "gov": "القاهرة",
            "postal_code": "11754",
            "lat": "30.062500",
            "long": "31.31133"
        },
        {
            "name": "التحرير بالقبة",
            "address": "خلف قسم الحدائق / حدائق القبة",
            "gov": "القاهرة",
            "postal_code": "11755",
            "lat": "30.093810",
            "long": "31.28396"
        },
        {
            "name": "تعاون المطرية",
            "address": "ش ابراهيم خليل من ش التروللى/ المطرية",
            "gov": "القاهرة",
            "postal_code": "11756",
            "lat": "30.123570",
            "long": "31.30189"
        },
        {
            "name": "هليوبوليس",
            "address": "/ الكوربة ش3 البوستة / مصر الجديدة",
            "gov": "القاهرة",
            "postal_code": "11757",
            "lat": "30.089460",
            "long": "31.32156"
        },
        {
            "name": "عرب الحصن",
            "address": "شارع وسط البلد/ مركز شباب عرب الحصن/المطرية",
            "gov": "القاهرة",
            "postal_code": "11758",
            "lat": "30.132600",
            "long": "31.30815"
        },
        {
            "name": "مساكن البريد_ مدينة نصر",
            "address": "عمارات البريد / رابعة العدوية طريق النصر",
            "gov": "القاهرة",
            "postal_code": "11759",
            "lat": "30.066180",
            "long": "31.32243"
        },
        {
            "name": "عزبة النخل",
            "address": "29 ش سليم الزقلة /عزبة النخل / شارع الفريد",
            "gov": "القاهرة",
            "postal_code": "11761",
            "lat": "30.141160",
            "long": "31.32262"
        },
        {
            "name": "الحى الثامن",
            "address": "السوق التجارى بالحى الثامن/م نصر بجوار عمارات السراج مول",
            "gov": "القاهرة",
            "postal_code": "11762",
            "lat": "30.061690",
            "long": "31.3734"
        },
        {
            "name": "مدينة نصر",
            "address": "ش احمد فؤاد نسيم / خلف القوى العاملة",
            "gov": "القاهرة",
            "postal_code": "11765",
            "lat": "30.076180",
            "long": "31.31647"
        },
        {
            "name": "كوبرى القبة",
            "address": "3 ش عبد الحميد سليم/كوبرى القبة",
            "gov": "القاهرة",
            "postal_code": "11766",
            "lat": "30.087790",
            "long": "31.25206"
        },
        {
            "name": "الحى الثانى _ هليوبوليس",
            "address": "1 ش محمد عبد السلام متفرع ش عبد العزيز فهمى/الحى الثانى/النزهة",
            "gov": "القاهرة",
            "postal_code": "11767",
            "lat": "30.106700",
            "long": "31.34058"
        },
        {
            "name": "الحى السادس",
            "address": "68ش الخليفة الظافر/الحى السادس",
            "gov": "القاهرة",
            "postal_code": "11768",
            "lat": "30.048240",
            "long": "31.32183"
        },
        {
            "name": "الشهيد عبد المنعم رياض",
            "address": "فيلات 23 يوليو / عزيز المصرى / جسر السويس",
            "gov": "القاهرة",
            "postal_code": "11769",
            "lat": "30.128540",
            "long": "31.36479"
        },
        {
            "name": "هليوبوليس غرب",
            "address": "ش عبد الحميد أبو هيف مصرالجديدة ميدان المحكمة",
            "gov": "القاهرة",
            "postal_code": "11771",
            "lat": "30.104720",
            "long": "31.33317"
        },
        {
            "name": "عين شمس",
            "address": "5 ش كامل مهدى من ش قمر / احمد عصمت",
            "gov": "القاهرة",
            "postal_code": "11772",
            "lat": "30.086770",
            "long": "31.25735"
        },
        {
            "name": "الهايكستب",
            "address": "مساكن مصنع 81 الحربى بالهايكستب بلوك 8",
            "gov": "القاهرة",
            "postal_code": "11773",
            "lat": "30.138891",
            "long": "31.421363"
        },
        {
            "name": "منشية البكرى",
            "address": "3ش فهمى باشا من ش الخليفه المأمون",
            "gov": "القاهرة",
            "postal_code": "11774",
            "lat": "30.086310",
            "long": "31.29973"
        },
        {
            "name": "معسكر ألماظة",
            "address": "سور المعسكر / طريق السويس",
            "gov": "القاهرة",
            "postal_code": "11775",
            "lat": "30.086130",
            "long": "31.93818"
        },
        {
            "name": "ميناء القاهرة الجوى أول",
            "address": "مبنى المطار القديم بالقاهرة/النزهة مجمع الخدمات",
            "gov": "القاهرة",
            "postal_code": "11776",
            "lat": "30.112720",
            "long": "31.39985"
        },
        {
            "name": "الالف مسكن",
            "address": "ش ماهر بدوى السوق التجارى الالف مسكن",
            "gov": "القاهرة",
            "postal_code": "11777",
            "lat": "30.120780",
            "long": "31.34015"
        },
        {
            "name": "القوات الجوية",
            "address": "داخل قيادة القوات الجوية/منشية البكرى",
            "gov": "القاهرة",
            "postal_code": "11779",
            "lat": "30.083950",
            "long": "31.31664"
        },
        {
            "name": "الجمهورية عين شمس",
            "address": "مبنى مجمع الخدمات/ مساكن عين شمس",
            "gov": "القاهرة",
            "postal_code": "11781",
            "lat": "30.135980",
            "long": "31.34949"
        },
        {
            "name": "زهراء عين شمس",
            "address": "27ش أبو الفتوح عبد الله/عين شمس من ش العشرين",
            "gov": "القاهرة",
            "postal_code": "11782",
            "lat": "30.131320",
            "long": "31.3401"
        },
        {
            "name": "سوق القاهرة الدولى",
            "address": "سوق القاهرة الدولى /مدينة نصر ثان",
            "gov": "القاهرة",
            "postal_code": "11783",
            "lat": "30.072970",
            "long": "31.30075"
        },
        {
            "name": "مدينة السلام ثانى",
            "address": "مبنى مركز حركة بريد السلام - مساكن الاسكندرية",
            "gov": "القاهرة",
            "postal_code": "11785",
            "lat": "31.243330",
            "long": "29.97196"
        },
        {
            "name": "نادى الشمس",
            "address": "سور نادى الشمس باب 4/جسر السويس / النزهة",
            "gov": "القاهرة",
            "postal_code": "11786",
            "lat": "30.121600",
            "long": "31.34316"
        },
        {
            "name": "قرية الأطفال",
            "address": "ش احمد الزمر مبنى قرية الأطفال/ مدينة نصر",
            "gov": "القاهرة",
            "postal_code": "11787",
            "lat": "30.045630",
            "long": "31.35005"
        },
        {
            "name": "مدينة السلام أول",
            "address": "مساكن أطلس / مدينة السلام بلوك 1",
            "gov": "القاهرة",
            "postal_code": "11788",
            "lat": "29.988930",
            "long": "31.27051"
        },
        {
            "name": "الجهاز المركزى للمحاسبات",
            "address": "الجهاز المركزى للمحاسبات/ ش صلاح سالم مدينة نصر",
            "gov": "القاهرة",
            "postal_code": "11789",
            "lat": "30.077750",
            "long": "31.31438"
        },
        {
            "name": "خمسة عشر مايو رابع",
            "address": "مجاورة 4 المرحلة الأولى /",
            "gov": "القاهرة",
            "postal_code": "11791",
            "lat": "30.288400",
            "long": "31.74377"
        },
        {
            "name": "كلية التكنولوجيا حلوان",
            "address": "مبنى كلية تكنولوجيا حلوان/بحلوان",
            "gov": "القاهرة",
            "postal_code": "11792",
            "lat": "29.866870",
            "long": "31.31527"
        },
        {
            "name": "كفر الشرفا",
            "address": "ش الجمهورية / كفر الشرفا",
            "gov": "القاهرة",
            "postal_code": "11793",
            "lat": "30.144810",
            "long": "31.34682"
        },
        {
            "name": "جامعة حلوان",
            "address": "مبنى جامعة حلوان / بعين حلوان",
            "gov": "القاهرة",
            "postal_code": "11795",
            "lat": "29.866870",
            "long": "31.31527"
        },
        {
            "name": "المعهد القومي لأورام",
            "address": "ش القصر العيني /بفم الخليج",
            "gov": "القاهرة",
            "postal_code": "11796",
            "lat": "30.022890",
            "long": "31.23091"
        },
        {
            "name": "حدائق زينهم",
            "address": "السيدة زينب تطوير مساكن زينهم المرحله الثالثه",
            "gov": "القاهرة",
            "postal_code": "11797",
            "lat": "30.023380",
            "long": "31.24498"
        },
        {
            "name": "خمسة عشر مايو خامس",
            "address": "مجاورة 1 المرحلة الأولى",
            "gov": "القاهرة",
            "postal_code": "11798",
            "lat": "30.282630",
            "long": "31.73878"
        },
        {
            "name": "روضة شيراتون",
            "address": "السوق التجارى خلف شيراتون المطار النزهة عمارات التعاوينات",
            "gov": "القاهرة",
            "postal_code": "11799",
            "lat": "30.089770",
            "long": "31.3416"
        },
        {
            "name": "بانوراما اكتوبر",
            "address": "عمارات العبور ش صلاح سالم / مدينة نصر",
            "gov": "القاهرة",
            "postal_code": "11811",
            "lat": "30.074270",
            "long": "31.30681"
        },
        {
            "name": "السواح",
            "address": "1عمارات الشركة السعودية بالسواح الزيتون",
            "gov": "القاهرة",
            "postal_code": "11813",
            "lat": "30.105590",
            "long": "31.29165"
        },
        {
            "name": "قرية البضائع",
            "address": "داخل قرية البضائع بالمطار/النزهة",
            "gov": "القاهرة",
            "postal_code": "11814",
            "lat": "30.118180",
            "long": "31.40812"
        },
        {
            "name": "نادى الزهور",
            "address": "داخل نادى الرياضات اليابانية بمدينة نصر",
            "gov": "القاهرة",
            "postal_code": "11815",
            "lat": "30.068210",
            "long": "31.3181"
        },
        {
            "name": "المنطقة الحرة_مدينة نصر",
            "address": "الهيئة العامة للاستثمار والمناطق الحرة - مدينة نصر",
            "gov": "القاهرة",
            "postal_code": "11816",
            "lat": "30.034120",
            "long": "31.34545"
        },
        {
            "name": "الأندلس",
            "address": "18ش عمارات التعاونيات / الحى الثامن",
            "gov": "القاهرة",
            "postal_code": "11817",
            "lat": "30.059530",
            "long": "31.35811"
        },
        {
            "name": "الجهاز المركزى للتعبئة العامة والاحصاء",
            "address": "مبنى الجهاز طريق صلاح سالم / مدينة نصر",
            "gov": "القاهرة",
            "postal_code": "11819",
            "lat": "30.078970",
            "long": "31.31567"
        },
        {
            "name": "شهداء أبو صير",
            "address": "كفر أبو صير/ ش المدرسة / المرج",
            "gov": "القاهرة",
            "postal_code": "11821",
            "lat": "30.160290",
            "long": "31.36989"
        },
        {
            "name": "سوق العبور",
            "address": "داخل سوق العبور/ مدينة العبور",
            "gov": "القاهرة",
            "postal_code": "11822",
            "lat": "30.162920",
            "long": "31.46693"
        },
        {
            "name": "نادى مدينة نصر",
            "address": "ش المخيم الدائم /سور نادى مدينة نصر",
            "gov": "القاهرة",
            "postal_code": "11823",
            "lat": "30.058840",
            "long": "31.31014"
        },
        {
            "name": "الثانوية الجوية",
            "address": "مساكن الشروق خلف الثانوية الجوية",
            "gov": "القاهرة",
            "postal_code": "11824",
            "lat": "30.071340",
            "long": "31.36684"
        },
        {
            "name": "مدينة النهضة",
            "address": "مساكن الجمهوريه/مدينة النهضة بلوك 1",
            "gov": "القاهرة",
            "postal_code": "11825",
            "lat": "30.173620",
            "long": "31.43773"
        },
        {
            "name": "المشروع السويسرى",
            "address": "عمارة 49 المشروع السويسرى/م نصر",
            "gov": "القاهرة",
            "postal_code": "11826",
            "lat": "30.045070",
            "long": "31.35941"
        },
        {
            "name": "مصلحة الضرائب على المبيعات _ الطيران",
            "address": "4ش الطيران مصلحة الضرائب على المبيعات/مدينة نصر",
            "gov": "القاهرة",
            "postal_code": "11827",
            "lat": "30.066560",
            "long": "31.32541"
        },
        {
            "name": "مدينة العبور",
            "address": "الحى الاول بجوار جهاز مدينة العبور",
            "gov": "القاهرة",
            "postal_code": "11828",
            "lat": "30.237880",
            "long": "31.45632"
        },
        {
            "name": "مدينة بدر",
            "address": "الحى الأول/المجاورة الأولى/مدينة بدر",
            "gov": "القاهرة",
            "postal_code": "11829",
            "lat": "30.154630",
            "long": "31.71289"
        },
        {
            "name": "مساكن ضباط الهايكستب",
            "address": "مدينة الضباط بالهايكستب/ النزهة",
            "gov": "القاهرة",
            "postal_code": "11831",
            "lat": "30.725580",
            "long": "31.58025"
        },
        {
            "name": "عرب الطوايلة",
            "address": "ش النفراوى جمعية خدمات المجتمع - عرب الطوايلة",
            "gov": "القاهرة",
            "postal_code": "11832",
            "lat": "30.135330",
            "long": "31.31305"
        },
        {
            "name": "المرج ثان",
            "address": "محطة مترو انفاق المرج القديمة",
            "gov": "القاهرة",
            "postal_code": "11833",
            "lat": "30.152080",
            "long": "31.33568"
        },
        {
            "name": "المدينة العمالية بألماظة",
            "address": "مساكن الماظة - مبنى مجمع الخدمات",
            "gov": "القاهرة",
            "postal_code": "11834",
            "lat": "30.091650",
            "long": "31.33987"
        },
        {
            "name": "التجمع الخامس_ القاهرة الجديدة",
            "address": "الحى الأول بالتجمع الخامس/ مدينة نصر",
            "gov": "القاهرة",
            "postal_code": "11835",
            "lat": "29.993030",
            "long": "31.41842"
        },
        {
            "name": "مدينة الشروق",
            "address": "مدينة الشروق/السوق التجارى/النزهة",
            "gov": "القاهرة",
            "postal_code": "11837",
            "lat": "30.137340",
            "long": "31.65859"
        },
        {
            "name": "التأمين والمعاشات القوات المسلحة",
            "address": "مبنى معاشات القوات المسلحة / كوبرى الفنجرى / صلاح سالم",
            "gov": "القاهرة",
            "postal_code": "11838",
            "lat": "30.075760",
            "long": "31.3014"
        },
        {
            "name": "مدينة الرحاب",
            "address": "مدينة الرحاب/القاهرة الجديدة/م الجديدة",
            "gov": "القاهرة",
            "postal_code": "11841",
            "lat": "30.066030",
            "long": "31.48561"
        },
        {
            "name": "ميناء القاهرة الجوى ثالث مغلق بصفة مؤقتة",
            "address": "صالة الوصول رقم 3 المطار القديم",
            "gov": "القاهرة",
            "postal_code": "11844",
            "lat": "30.112720",
            "long": "31.39985"
        },
        {
            "name": "إسكان شباب العبور",
            "address": "مدينة العبور - اسكان شباب 100",
            "gov": "القاهرة",
            "postal_code": "11846",
            "lat": "30.253260",
            "long": "31.47052"
        },
        {
            "name": "كفر الباشا",
            "address": "جمعية تنمية المجتمع المحلى كفر الباشا",
            "gov": "القاهرة",
            "postal_code": "11848",
            "lat": "30.685060",
            "long": "31.44981"
        },
        {
            "name": "ميدان حلمية الزيتون",
            "address": "14 ش بن الحكم ميدان الحلمية الزيتون",
            "gov": "القاهرة",
            "postal_code": "11849",
            "lat": "30.111640",
            "long": "31.31732"
        },
        {
            "name": "مصنع صقر",
            "address": "طريق السويس - النزهه مصنع صقر للصناعات المتطورة",
            "gov": "القاهرة",
            "postal_code": "11851",
            "lat": "30.086130",
            "long": "31.93818"
        },
        {
            "name": "مطابع البريد",
            "address": "أمتداد رمسيس مبنى مطابع البريد",
            "gov": "القاهرة",
            "postal_code": "11852",
            "lat": "30.053620",
            "long": "31.30753"
        },
        {
            "name": "تبادل المطار",
            "address": "مبنى مطار القاهرة",
            "gov": "القاهرة",
            "postal_code": "11861",
            "lat": "30.044420",
            "long": "31.23571"
        },
        {
            "name": "هيئة الاستثمار",
            "address": "مبنى الاستثمار مدينة نصر / ارض المعارض / ش صلاح سالم",
            "gov": "القاهرة",
            "postal_code": "11863",
            "lat": "30.071260",
            "long": "31.29671"
        },
        {
            "name": "القصرالضيافة",
            "address": "روكسى",
            "gov": "القاهرة",
            "postal_code": "11864",
            "lat": "30.089550",
            "long": "31.31798"
        },
        {
            "name": "التجمع الاول _ القاهرة الجديدة",
            "address": "التجمع الاول / القاهرة الجديدة",
            "gov": "القاهرة",
            "postal_code": "11865",
            "lat": "30.008490",
            "long": "31.42848"
        },
        {
            "name": "مصلحة الضرائب على المبيعات _ العبور",
            "address": "26ا عمارات العبور / صلاح سالم",
            "gov": "القاهرة",
            "postal_code": "11867",
            "lat": "30.228340",
            "long": "31.47989"
        },
        {
            "name": "اسكان شرق الروبيكى _ مدينة بدر",
            "address": "مساكن مصطفى حسين - مدينه بدر",
            "gov": "القاهرة",
            "postal_code": "11868",
            "lat": "30.136000",
            "long": "31.715"
        },
        {
            "name": "مصلحة الضرائب على المبيعات السواح",
            "address": "2عمارات الاوقاف ـ ميدان السواح",
            "gov": "القاهرة",
            "postal_code": "11869",
            "lat": "30.102630",
            "long": "31.3007"
        },
        {
            "name": "العزب",
            "address": "ش الترعة الهوارى / العزب / المطرية",
            "gov": "القاهرة",
            "postal_code": "11871",
            "lat": "30.119310",
            "long": "31.29411"
        },
        {
            "name": "الوحدة الوايلى",
            "address": "منشيه ناصر/ الوايلى الكبير ش جزيرة ناصر",
            "gov": "القاهرة",
            "postal_code": "11887",
            "lat": "30.102670",
            "long": "31.28203"
        },
        {
            "name": "العصارة",
            "address": "ش سليم الزقلة من ش الفريد / عزبة النخل",
            "gov": "القاهرة",
            "postal_code": "11888",
            "lat": "30.141020",
            "long": "31.32462"
        },
        {
            "name": "مصنع الطائرات",
            "address": "ش عمر بن عبدالعزيز / حلوان",
            "gov": "القاهرة",
            "postal_code": "11895",
            "lat": "29.836390",
            "long": "31.32682"
        },
        {
            "name": "التبين",
            "address": "التبين البلد شارع كورنيش النيل/",
            "gov": "القاهرة",
            "postal_code": "11911",
            "lat": "29.779280",
            "long": "31.29578"
        },
        {
            "name": "الحديد و الصلب",
            "address": "مساكن الحديد والصلب/القاهرة/التبين / بلوك 35",
            "gov": "القاهرة",
            "postal_code": "11912",
            "lat": "30.050460",
            "long": "31.24234"
        },
        {
            "name": "مدينة الصلب الجديدة",
            "address": "مساكن الصلب الجديدة/التبين / ميدان البوسطة",
            "gov": "القاهرة",
            "postal_code": "11914",
            "lat": "29.781620",
            "long": "31.30269"
        },
        {
            "name": "كفر العلو",
            "address": "سوق كفر العلو بجوار الجمعية التعاونية",
            "gov": "القاهرة",
            "postal_code": "11915",
            "lat": "30.128732",
            "long": "31.377963"
        },
        {
            "name": "عزبة الوالدة",
            "address": "عزبة الوالدة بحلوان",
            "gov": "القاهرة",
            "postal_code": "11916",
            "lat": "29.859930",
            "long": "31.31254"
        },
        {
            "name": "طره الاسمنت",
            "address": "جمعية تنمية المجتمع بجوار شركة الاسمنت",
            "gov": "القاهرة",
            "postal_code": "11917",
            "lat": "29.923280",
            "long": "31.28839"
        },
        {
            "name": "حلوان البلد",
            "address": "حلوان البلد / ش فاروق",
            "gov": "القاهرة",
            "postal_code": "11918",
            "lat": "29.847040",
            "long": "31.29472"
        },
        {
            "name": "عرب سلام",
            "address": "جمعية تنمية المجتمع /ترعة الخشاب المعصرة",
            "gov": "القاهرة",
            "postal_code": "11919",
            "lat": "29.910730",
            "long": "31.28938"
        },
        {
            "name": "المجمع السكنى",
            "address": "المجمع السكنى بحلوان المشروع الأمريكى مجاور 3",
            "gov": "القاهرة",
            "postal_code": "11921",
            "lat": "29.840270",
            "long": "31.29821"
        },
        {
            "name": "الحكر البحرى",
            "address": "الحكر البحرى / التبين /ش السلام",
            "gov": "القاهرة",
            "postal_code": "11922",
            "lat": "29.798270",
            "long": "31.31251"
        },
        {
            "name": "عرب غنيم",
            "address": "ش عرب غنيم / القاهرة",
            "gov": "القاهرة",
            "postal_code": "11923",
            "lat": "29.845480",
            "long": "31.31243"
        },
        {
            "name": "عزبة خير الله",
            "address": "2ش الاسيوطى من ش بهجت الإسلام دار السلام",
            "gov": "القاهرة",
            "postal_code": "11924",
            "lat": "31.206060",
            "long": "30.96706"
        },
        {
            "name": "منشأة جمال عبد الناصر",
            "address": "منشأة جمال عبد الناصرش 10 حلوان",
            "gov": "القاهرة",
            "postal_code": "11925",
            "lat": "29.838770",
            "long": "31.30492"
        },
        {
            "name": "خمسة عشر مايو سادس",
            "address": "مجاورة 18 المرحلة الثانية / 15 مايو",
            "gov": "القاهرة",
            "postal_code": "11926",
            "lat": "29.834260",
            "long": "31.38185"
        },
        {
            "name": "خمسة عشر مايو سابع",
            "address": "مجاورة 22 المرحلة الثانية / 15 مايو",
            "gov": "القاهرة",
            "postal_code": "11927",
            "lat": "29.830540",
            "long": "31.37585"
        },
        {
            "name": "محطة كهرباء حلوان",
            "address": "مساكن محطة كهرباء حلوان",
            "gov": "القاهرة",
            "postal_code": "11928",
            "lat": "29.871960",
            "long": "31.29146"
        },
        {
            "name": "ركن حلوان",
            "address": "محطة الدواجن كورنيش النيل",
            "gov": "القاهرة",
            "postal_code": "11929",
            "lat": "29.838110",
            "long": "31.29858"
        },
        {
            "name": "معادى صقر قريش",
            "address": "مساكن السعودية عمارة 243 / المعادى الجديدة",
            "gov": "القاهرة",
            "postal_code": "11931",
            "lat": "29.986660",
            "long": "31.28423"
        },
        {
            "name": "الشقيفى",
            "address": "ش الشيخ محفوظ قرية عرب كفر العلو / التبين",
            "gov": "القاهرة",
            "postal_code": "11932",
            "lat": "29.809700",
            "long": "31.31261"
        },
        {
            "name": "محكمة المعادى الجزئية",
            "address": "ش عبد المنعم رياض داخل مبنى محكمة المعادى الجزئية",
            "gov": "القاهرة",
            "postal_code": "11933",
            "lat": "29.970620",
            "long": "31.26662"
        },
        {
            "name": "عرب راشد الشرقية",
            "address": "عرب راشد/ش4/القاهرة/حلوان",
            "gov": "القاهرة",
            "postal_code": "11934",
            "lat": "30.033930",
            "long": "31.23723"
        },
        {
            "name": "عرب الوالدة",
            "address": "منطقة عرب الوالدة / حلوان",
            "gov": "القاهرة",
            "postal_code": "11935",
            "lat": "29.859510",
            "long": "31.315"
        },
        {
            "name": "القطامية",
            "address": "عمارة 13مساكن شركة النيل / القطامية",
            "gov": "القاهرة",
            "postal_code": "11936",
            "lat": "29.829300",
            "long": "31.8822"
        },
        {
            "name": "خمسة عشر مايو ثامن",
            "address": "المجاورة 11 / داخل السوق",
            "gov": "القاهرة",
            "postal_code": "11937",
            "lat": "29.83295",
            "long": "31.35921"
        },
        {
            "name": "عرب راشد الغربية",
            "address": "خلف مركز شباب / عرب راشد / حلوان",
            "gov": "القاهرة",
            "postal_code": "11938",
            "lat": "29.835890",
            "long": "31.31208"
        },
        {
            "name": "مايو إحدى عشر 15",
            "address": "مدينة 15 مايو امتداد 15 مايو مجاورة 5,6",
            "gov": "القاهرة",
            "postal_code": "14531",
            "lat": "29.857940",
            "long": "31.38847"
        },
        {
            "name": "مايو عاشر 15",
            "address": "15 مايو سوق مجاورة 25",
            "gov": "القاهرة",
            "postal_code": "14541",
            "lat": "29.857940",
            "long": "31.38847"
        },
        {
            "name": "مايو تاسع 15",
            "address": "مدينة 15 مايو سوق مجاورة 28",
            "gov": "القاهرة",
            "postal_code": "14551",
            "lat": "29.839630",
            "long": "31.37761"
        },
        {
            "name": "الفسطاط",
            "address": "109عمارات الفسطاط / مصر القديمة مقر مصلحة السجل التجارى",
            "gov": "القاهرة",
            "postal_code": "17611",
            "lat": "30.002160",
            "long": "31.24632"
        },
        {
            "name": "النعام",
            "address": "29 ش احمد ماهر من ش منشية التحرير",
            "gov": "القاهرة",
            "postal_code": "18511",
            "lat": "30.121190",
            "long": "31.31775"
        },
        {
            "name": "مدينتى",
            "address": "الوحدة رقم 2 - أرابيسك مول - مدينتي",
            "gov": "القاهرة",
            "postal_code": "19519",
            "lat": "30.105960",
            "long": "31.63076"
        },
        {
            "name": "الشرابية",
            "address": "الشرابية",
            "gov": "القاهرة",
            "postal_code": "0",
            "lat": "30.070380",
            "long": "31.25933"
        },
        {
            "name": "شباب الأمل",
            "address": "شباب الأمل",
            "gov": "القاهرة",
            "postal_code": "11855",
            "lat": "31.35921",
            "long": "31.47052"
        },
        {
            "name": "الشرطة العسكرية",
            "address": "مقر الشرطة العسكرية - عزبة الهجانة - الكيلو 4.5",
            "gov": "القاهرة",
            "postal_code": "18711",
            "lat": "30.078550",
            "long": "31.38215"
        },
        {
            "name": "القرية التكنولوجية بالمعادى",
            "address": "القرية التكنولوجية بالمعادى",
            "gov": "القاهرة",
            "postal_code": "17631",
            "lat": "29.971290",
            "long": "31.28303"
        },
        {
            "name": "المبيضة",
            "address": "المبيضة",
            "gov": "القاهرة",
            "postal_code": "11625",
            "lat": "30.079530",
            "long": "31.24046"
        },
        {
            "name": "سنان - تحت الإنشاء",
            "address": "شارع فايز جرجس من شارع سنان - الزيتون",
            "gov": "القاهرة",
            "postal_code": "11764",
            "lat": "30.105590",
            "long": "31.31577"
        },
        {
            "name": "25 يناير بالمقطم - لم يتم افتتاحه",
            "address": "منطقة صبحى حسين بمساكن التعاونيات بال-هضبة الوسطى-لم يتم افتتاحه",
            "gov": "القاهرة",
            "postal_code": "17621",
            "lat": "30.005510",
            "long": "31.3292"
        },
        {
            "name": "المعصرة الجديدة",
            "address": "المبنى الادارى للبريد بالمعصرة طريق الاتوستراد",
            "gov": "القاهرة",
            "postal_code": "0",
            "lat": "29.906340",
            "long": "31.2984"
        },
        {
            "name": "15مايو اثنى عشر - لا يعمل",
            "address": "مدينة 15 مايو بجوار مجاورة 10",
            "gov": "القاهرة",
            "postal_code": "0",
            "lat": "29.857940",
            "long": "31.38847"
        }
  ]